# LAS 2.0 Directional Survey & Log File
# Canadian Well Logging Society Specifications
~VERSION INFORMATION
 VERS.   2.0 : CWLS LOG ASCII STANDARD - VERSION 2.0
 WRAP.    NO : ONE LINE PER DEPTH STEP
~WELL INFORMATION
 STRT.FT      0.00 : START DEPTH
 STOP.FT      9200.00 : STOP DEPTH
 STEP.FT      100.00 : STEP LENGTH
 NULL.        -999.25 : NULL VALUE
 COMP.        Occidental Petroleum : COMPANY
 WELL.        Elk Hills Pioneer-22B : WELL NAME
 FLD .        Kern : FIELD
 LOC .        35.267810 N -119.452390 W : LOCATION
 APIN.        04-029-88123 : API NUMBER
 DATE.        2023-03-30 : LOG DATE
~CURVE INFORMATION
 MD    .FT     : MEASURED DEPTH
 INC   .DEG    : INCLINATION ANGLE
 AZI   .DEG    : AZIMUTH ANGLE
 TVD   .FT     : TRUE VERTICAL DEPTH
 DX    .FT     : EASTINGS DEVIATION
 DY    .FT     : NORTHINGS DEVIATION
 DLS   .DEG/100FT : DOGLEG SEVERITY
~A MEASURED DEPTH  INCLINATION  AZIMUTH     TVD       DX_EAST    DY_NORTH     DLS
        0.00        0.00        0.00        0.00        0.00        0.00      0.00
      100.00        0.00        0.00      100.00        0.00        0.00      0.00
      200.00        0.00        0.00      200.00        0.00        0.00      0.00
      300.00        0.00        0.00      300.00        0.00        0.00      0.00
      400.00        0.00        0.00      400.00        0.00        0.00      0.00
      500.00        0.00        0.00      500.00        0.00        0.00      0.00
      600.00        0.00        0.00      600.00        0.00        0.00      0.00
      700.00        0.00        0.00      700.00        0.00        0.00      0.00
      800.00        0.00        0.00      800.00        0.00        0.00      0.00
      900.00        0.00        0.00      900.00        0.00        0.00      0.00
     1000.00        0.00        0.00     1000.00        0.00        0.00      0.00
     1100.00        0.00        0.00     1100.00        0.00        0.00      0.00
     1200.00        0.00        0.00     1200.00        0.00        0.00      0.00
     1300.00        0.00        0.00     1300.00        0.00        0.00      0.00
     1400.00        0.00        0.00     1400.00        0.00        0.00      0.00
     1500.00        0.00        0.00     1500.00        0.00        0.00      0.00
     1600.00        0.00        0.00     1600.00        0.00        0.00      0.00
     1700.00        0.00        0.00     1700.00        0.00        0.00      0.00
     1800.00        0.00        0.00     1800.00        0.00        0.00      0.00
     1900.00        0.00        0.00     1900.00        0.00        0.00      0.00
     2000.00        0.00        0.00     2000.00        0.00        0.00      0.00
     2100.00        0.00        0.00     2100.00        0.00        0.00      0.00
     2200.00        0.00        0.00     2200.00        0.00        0.00      0.00
     2300.00        0.00        0.00     2300.00        0.00        0.00      0.00
     2400.00        0.00        0.00     2400.00        0.00        0.00      0.00
     2500.00        0.00        0.00     2500.00        0.00        0.00      0.00
     2600.00        0.00        0.00     2600.00        0.00        0.00      0.00
     2700.00        0.00        0.00     2700.00        0.00        0.00      0.00
     2800.00        0.00        0.00     2800.00        0.00        0.00      0.00
     2900.00        0.00        0.00     2900.00        0.00        0.00      0.00
     3000.00        0.00        0.00     3000.00        0.00        0.00      0.00
     3100.00        0.00        0.00     3100.00        0.00        0.00      0.00
     3200.00        0.00      215.67     3200.00        0.00        0.00      0.00
     3300.00        1.00      214.19     3299.98       -0.98       -1.44      1.00
     3400.00        2.00      216.02     3399.92       -3.03       -4.27      1.00
     3500.00        3.00      214.87     3499.79       -6.03       -8.56      1.00
     3600.00        4.00      215.10     3599.54      -10.04      -14.27      1.00
     3700.00        5.00      213.86     3699.16      -14.89      -21.50      1.00
     3800.00        6.00      215.98     3798.61      -21.03      -29.96      1.02
     3900.00        7.00      214.05     3897.87      -27.86      -40.06      1.02
     4000.00        8.00      214.52     3996.90      -35.74      -51.53      1.00
     4100.00        9.00      214.81     4095.67      -44.67      -64.37      1.00
     4200.00       10.00      215.81     4194.15      -54.83      -78.45      1.01
     4300.00       11.00      214.83     4292.31      -65.73      -94.12      1.02
     4400.00       12.00      214.45     4390.12      -77.49     -111.26      1.00
     4500.00       13.00      215.37     4487.56      -90.51     -129.60      1.02
     4600.00       14.00      214.27     4584.59     -104.14     -149.60      1.03
     4700.00       15.00      214.70     4681.18     -118.87     -170.88      1.01
     4800.00       16.00      215.98     4777.31     -135.07     -193.18      1.06
     4900.00       17.00      214.40     4872.94     -151.58     -217.30      1.10
     5000.00       18.00      215.30     4968.04     -169.44     -242.52      1.04
     5100.00       19.00      214.40     5062.60     -187.83     -269.39      1.04
     5200.00       20.00      214.92     5156.57     -207.41     -297.43      1.01
     5300.00       21.00      214.10     5249.92     -227.50     -327.11      1.04
     5400.00       22.00      214.22     5342.64     -248.57     -358.08      1.00
     5500.00       23.00      215.54     5434.69     -271.29     -389.87      1.12
     5600.00       24.00      214.24     5526.05     -294.17     -423.50      1.13
     5700.00       25.00      215.09     5616.68     -318.46     -458.08      1.06
     5800.00       26.00      214.70     5706.56     -343.42     -494.12      1.01
     5900.00       27.00      215.55     5795.66     -369.81     -531.06      1.07
     6000.00       28.00      213.93     5883.95     -396.02     -570.01      1.25
     6100.00       29.00      215.24     5971.41     -423.99     -609.61      1.18
     6200.00       30.00      214.77     6058.02     -452.50     -650.68      1.03
     6300.00       31.00      214.61     6143.73     -481.75     -693.07      1.00
     6400.00       32.00      214.82     6228.54     -512.01     -736.58      1.01
     6500.00       33.00      214.84     6312.41     -543.13     -781.28      1.00
     6600.00       34.00      216.09     6395.31     -576.07     -826.47      1.22
     6700.00       35.00      214.54     6477.23     -608.59     -873.71      1.33
     6800.00       36.00      215.74     6558.13     -642.93     -921.42      1.22
     6900.00       37.00      213.82     6637.99     -676.42     -971.42      1.52
     7000.00       38.00      214.05     6716.79     -710.89    -1022.43      1.01
     7100.00       39.00      214.54     6794.51     -746.57    -1074.27      1.05
     7200.00       40.00      214.80     6871.11     -783.25    -1127.06      1.01
     7300.00       41.00      214.45     6946.58     -820.36    -1181.16      1.03
     7400.00       42.00      215.27     7020.90     -859.00    -1235.79      1.14
     7500.00       42.00      215.53     7095.21     -897.89    -1290.24      0.17
     7600.00       42.00      213.83     7169.52     -935.14    -1345.83      1.14
     7700.00       42.00      214.87     7243.84     -973.39    -1400.73      0.69
     7800.00       42.00      215.08     7318.15    -1011.85    -1455.49      0.14
     7900.00       42.00      215.96     7392.47    -1051.14    -1509.65      0.59
     8000.00       42.00      214.94     7466.78    -1089.46    -1564.50      0.69
     8100.00       42.00      215.43     7541.10    -1128.24    -1619.03      0.33
     8200.00       42.00      214.27     7615.41    -1165.92    -1674.32      0.77
     8300.00       42.00      214.34     7689.73    -1203.67    -1729.57      0.05
     8400.00       42.00      214.64     7764.04    -1241.71    -1784.62      0.20
     8500.00       42.00      214.91     7838.36    -1280.01    -1839.49      0.18
     8600.00       42.00      215.32     7912.67    -1318.70    -1894.09      0.28
     8700.00       42.00      215.34     7986.98    -1357.40    -1948.67      0.02
     8800.00       42.00      214.20     8061.30    -1395.01    -2004.01      0.77
     8900.00       42.00      215.70     8135.61    -1434.05    -2058.35      1.00
     9000.00       42.00      215.05     8209.93    -1472.48    -2113.13      0.43
     9100.00       42.00      216.12     8284.24    -1511.92    -2167.18      0.71
     9200.00       42.00      213.95     8358.56    -1549.29    -2222.69      1.45
