# LAS 2.0 Directional Survey & Log File
# Canadian Well Logging Society Specifications
~VERSION INFORMATION
 VERS.   2.0 : CWLS LOG ASCII STANDARD - VERSION 2.0
 WRAP.    NO : ONE LINE PER DEPTH STEP
~WELL INFORMATION
 STRT.FT      0.00 : START DEPTH
 STOP.FT      2800.00 : STOP DEPTH
 STEP.FT      100.00 : STEP LENGTH
 NULL.        -999.25 : NULL VALUE
 COMP.        Chevron USA Inc. : COMPANY
 WELL.        Kern River Horizon-01 : WELL NAME
 FLD .        Kern : FIELD
 LOC .        35.438210 N -118.989420 W : LOCATION
 APIN.        04-029-21849 : API NUMBER
 DATE.        2021-04-02 : LOG DATE
~CURVE INFORMATION
 MD    .FT     : MEASURED DEPTH
 INC   .DEG    : INCLINATION ANGLE
 AZI   .DEG    : AZIMUTH ANGLE
 TVD   .FT     : TRUE VERTICAL DEPTH
 DX    .FT     : EASTINGS DEVIATION
 DY    .FT     : NORTHINGS DEVIATION
 DLS   .DEG/100FT : DOGLEG SEVERITY
~A MEASURED DEPTH  INCLINATION  AZIMUTH     TVD       DX_EAST    DY_NORTH     DLS
        0.00        0.00        0.00        0.00        0.00        0.00      0.00
      100.00        0.00        0.00      100.00        0.00        0.00      0.00
      200.00        0.00        0.00      200.00        0.00        0.00      0.00
      300.00        0.00        0.00      300.00        0.00        0.00      0.00
      400.00        0.00        0.00      400.00        0.00        0.00      0.00
      500.00        0.00        0.00      500.00        0.00        0.00      0.00
      600.00        0.00        0.00      600.00        0.00        0.00      0.00
      700.00        0.00        0.00      700.00        0.00        0.00      0.00
      800.00        0.00        0.00      800.00        0.00        0.00      0.00
      900.00        0.00        0.00      900.00        0.00        0.00      0.00
     1000.00        0.00        0.00     1000.00        0.00        0.00      0.00
     1100.00        0.00        0.00     1100.00        0.00        0.00      0.00
     1200.00        0.00       84.99     1200.00        0.00        0.00      0.00
     1300.00        2.42       85.23     1299.91        4.22        0.35      2.42
     1400.00        4.85       85.06     1399.55       12.64        1.08      2.43
     1500.00        7.27       86.20     1498.75       25.27        1.92      2.43
     1600.00        9.70       83.81     1597.32       42.01        3.74      2.45
     1700.00       12.12       83.92     1695.09       62.89        5.96      2.42
     1800.00       14.55       86.04     1791.88       87.95        7.70      2.47
     1900.00       16.97       84.70     1887.53      117.01       10.39      2.45
     2000.00       19.39       84.01     1981.86      150.03       13.86      2.43
     2100.00       21.82       86.14     2074.69      187.12       16.36      2.54
     2200.00       24.24       85.66     2165.87      228.06       19.47      2.43
     2300.00       26.67       84.44     2255.24      272.73       23.82      2.48
     2400.00       28.00       85.88     2343.53      319.55       27.19      1.49
     2500.00       28.00       84.01     2431.83      366.24       32.10      0.88
     2600.00       28.00       84.83     2520.12      413.00       36.33      0.38
     2700.00       28.00       85.11     2608.42      459.77       40.33      0.13
     2800.00       28.00       86.02     2696.71      506.61       43.59      0.43
