# LAS 2.0 Directional Survey & Log File
# Canadian Well Logging Society Specifications
~VERSION INFORMATION
 VERS.   2.0 : CWLS LOG ASCII STANDARD - VERSION 2.0
 WRAP.    NO : ONE LINE PER DEPTH STEP
~WELL INFORMATION
 STRT.FT      0.00 : START DEPTH
 STOP.FT      20100.00 : STOP DEPTH
 STEP.FT      100.00 : STEP LENGTH
 NULL.        -999.25 : NULL VALUE
 COMP.        Husky Oil / USGS : COMPANY
 WELL.        Inigok Test Well No. 1 : WELL NAME
 FLD .        North Slope : FIELD
 LOC .        70.004167 N -153.085833 W : LOCATION
 APIN.        50-089-20001 : API NUMBER
 DATE.        1979-05-22 : LOG DATE
~CURVE INFORMATION
 MD    .FT     : MEASURED DEPTH
 INC   .DEG    : INCLINATION ANGLE
 AZI   .DEG    : AZIMUTH ANGLE
 TVD   .FT     : TRUE VERTICAL DEPTH
 DX    .FT     : EASTINGS DEVIATION
 DY    .FT     : NORTHINGS DEVIATION
 DLS   .DEG/100FT : DOGLEG SEVERITY
~A MEASURED DEPTH  INCLINATION  AZIMUTH     TVD       DX_EAST    DY_NORTH     DLS
# ...
     9700.00        0.00        0.00     9700.00        0.00        0.00      0.00
     9800.00        0.00        0.00     9800.00        0.00        0.00      0.00
     9900.00        0.00        0.00     9900.00        0.00        0.00      0.00
    10000.00        0.00        0.00    10000.00        0.00        0.00      0.00
    10100.00        0.00        0.00    10100.00        0.00        0.00      0.00
    10200.00        0.00        0.00    10200.00        0.00        0.00      0.00
    10300.00        0.00        0.00    10300.00        0.00        0.00      0.00
    10400.00        0.00        0.00    10400.00        0.00        0.00      0.00
    10500.00        0.00        0.00    10500.00        0.00        0.00      0.00
    10600.00        0.00        0.00    10600.00        0.00        0.00      0.00
    10700.00        0.00        0.00    10700.00        0.00        0.00      0.00
    10800.00        0.00        0.00    10800.00        0.00        0.00      0.00
    10900.00        0.00        0.00    10900.00        0.00        0.00      0.00
    11000.00        0.00        0.00    11000.00        0.00        0.00      0.00
    11100.00        0.00        0.00    11100.00        0.00        0.00      0.00
    11200.00        0.00        0.00    11200.00        0.00        0.00      0.00
    11300.00        0.00        0.00    11300.00        0.00        0.00      0.00
    11400.00        0.00        0.00    11400.00        0.00        0.00      0.00
    11500.00        0.00        0.00    11500.00        0.00        0.00      0.00
    11600.00        0.00        0.00    11600.00        0.00        0.00      0.00
    11700.00        0.00        0.00    11700.00        0.00        0.00      0.00
    11800.00        0.00        0.00    11800.00        0.00        0.00      0.00
    11900.00        0.00        0.00    11900.00        0.00        0.00      0.00
    12000.00        0.00       46.07    12000.00        0.00        0.00      0.00
    12100.00        0.22       45.50    12100.00        0.27        0.27      0.22
    12200.00        0.44       43.98    12200.00        0.81        0.82      0.22
    12300.00        0.66       45.59    12299.99        1.63        1.63      0.22
    12400.00        0.88       45.78    12399.98        2.74        2.70      0.22
    12500.00        1.10       45.54    12499.96        4.11        4.05      0.22
    12600.00        1.32       45.62    12599.93        5.76        5.67      0.22
    12700.00        1.54       45.96    12699.90        7.69        7.54      0.22
    12800.00        1.76       44.72    12799.85        9.86        9.72      0.23
    12900.00        1.98       45.77    12899.79       12.34       12.14      0.23
    13000.00        2.20       44.04    12999.72       15.01       14.90      0.23
    13100.00        2.42       44.26    13099.63       17.96       17.93      0.22
    13200.00        2.64       44.03    13199.52       21.17       21.25      0.23
    13300.00        2.87       45.16    13299.39       24.72       24.77      0.23
    13400.00        3.09       46.19    13399.25       28.60       28.50      0.22
    13500.00        3.31       44.83    13499.08       32.67       32.59      0.23
    13600.00        3.53       44.35    13598.89       36.97       36.99      0.22
    13700.00        3.75       45.22    13698.68       41.60       41.59      0.22
    13800.00        3.97       43.87    13798.44       46.40       46.58      0.24
    13900.00        4.19       45.92    13898.17       51.65       51.66      0.26
    14000.00        4.41       43.94    13997.88       56.98       57.19      0.26
    14100.00        4.63       44.72    14097.55       62.66       62.93      0.23
    14200.00        4.85       44.96    14197.19       68.63       68.91      0.22
    14300.00        5.07       44.88    14296.80       74.86       75.17      0.22
    14400.00        5.29       43.92    14396.38       81.26       81.81      0.24
    14500.00        5.51       44.99    14495.91       88.05       88.60      0.24
    14600.00        5.73       45.79    14595.41       95.20       95.56      0.23
    14700.00        5.95       45.06    14694.88      102.54      102.89      0.23
    14800.00        6.17       46.11    14794.30      110.29      110.34      0.25
    14900.00        6.39       44.88    14893.67      118.15      118.23      0.26
    15000.00        6.61       44.75    14993.01      126.25      126.41      0.22
    15100.00        6.83       45.17    15092.30      134.69      134.79      0.23
    15200.00        7.05       45.60    15191.54      143.46      143.38      0.23
    15300.00        7.27       44.38    15290.74      152.32      152.43      0.27
    15400.00        7.49       44.82    15389.88      161.51      161.68      0.23
    15500.00        7.71       44.13    15488.98      170.86      171.32      0.24
    15600.00        7.93       44.53    15588.02      180.54      181.16      0.23
    15700.00        8.15       45.07    15687.01      190.58      191.18      0.24
    15800.00        8.38       45.37    15785.94      200.95      201.41      0.23
    15900.00        8.60       45.62    15884.82      211.63      211.86      0.22
    16000.00        8.82       46.08    15983.64      222.67      222.49      0.23
    16100.00        9.04       45.19    16082.40      233.81      233.56      0.26
    16200.00        9.26       44.74    16181.10      245.13      244.99      0.23
    16300.00        9.48       44.66    16279.73      256.71      256.70      0.22
    16400.00        9.70       45.02    16378.30      268.62      268.61      0.23
    16500.00        9.92       45.56    16476.81      280.92      280.67      0.24
    16600.00       10.14       43.92    16575.25      293.13      293.35      0.36
    16700.00       10.36       44.90    16673.62      305.82      306.09      0.28
    16800.00       10.58       44.81    16771.92      318.76      319.11      0.22
    16900.00       10.80       45.50    16870.14      332.13      332.24      0.25
    17000.00       11.02       45.67    16968.30      345.80      345.60      0.22
    17100.00       11.24       44.32    17066.38      359.42      359.55      0.34
    17200.00       11.46       45.98    17164.39      373.71      373.36      0.39
    17300.00       11.68       45.88    17262.32      388.25      387.45      0.22
    17400.00       11.90       44.13    17360.17      402.60      402.25      0.42
    17500.00       12.12       44.41    17457.94      417.30      417.26      0.23
    17600.00       12.34       46.00    17555.63      432.68      432.11      0.40
    17700.00       12.50       44.77    17653.26      447.92      447.47      0.31
    17800.00       12.50       45.68    17750.89      463.40      462.59      0.20
    17900.00       12.50       46.16    17848.51      479.01      477.59      0.10
    18000.00       12.50       45.73    17946.14      494.51      492.69      0.09
    18100.00       12.50       44.75    18043.77      509.75      508.06      0.21
    18200.00       12.50       44.87    18141.40      525.02      523.40      0.03
    18300.00       12.50       45.00    18239.03      540.33      538.71      0.03
    18400.00       12.50       43.90    18336.66      555.33      554.30      0.24
    18500.00       12.50       46.03    18434.29      570.91      569.33      0.46
    18600.00       12.50       45.42    18531.92      586.33      584.52      0.13
    18700.00       12.50       45.81    18629.55      601.85      599.61      0.08
    18800.00       12.50       45.00    18727.18      617.15      614.91      0.17
    18900.00       12.50       45.95    18824.81      632.71      629.96      0.21
    19000.00       12.50       43.94    18922.44      647.73      645.55      0.43
    19100.00       12.50       45.85    19020.07      663.26      660.62      0.41
    19200.00       12.50       45.39    19117.70      678.67      675.82      0.10
    19300.00       12.50       44.05    19215.33      693.71      691.38      0.29
