# LAS 2.0 Directional Survey & Log File
# Canadian Well Logging Society Specifications
~VERSION INFORMATION
 VERS.   2.0 : CWLS LOG ASCII STANDARD - VERSION 2.0
 WRAP.    NO : ONE LINE PER DEPTH STEP
~WELL INFORMATION
 STRT.FT      0.00 : START DEPTH
 STOP.FT      20100.00 : STOP DEPTH
 STEP.FT      100.00 : STEP LENGTH
 NULL.        -999.25 : NULL VALUE
 COMP.        Husky Oil / USGS : COMPANY
 WELL.        Inigok Test Well No. 1 : WELL NAME
 FLD .        North Slope : FIELD
 LOC .        70.004167 N -153.085833 W : LOCATION
 APIN.        50-089-20001 : API NUMBER
 DATE.        1979-05-22 : LOG DATE
~CURVE INFORMATION
 MD    .FT     : MEASURED DEPTH
 INC   .DEG    : INCLINATION ANGLE
 AZI   .DEG    : AZIMUTH ANGLE
 TVD   .FT     : TRUE VERTICAL DEPTH
 DX    .FT     : EASTINGS DEVIATION
 DY    .FT     : NORTHINGS DEVIATION
 DLS   .DEG/100FT : DOGLEG SEVERITY
~A MEASURED DEPTH  INCLINATION  AZIMUTH     TVD       DX_EAST    DY_NORTH     DLS
        0.00        0.00        0.00        0.00        0.00        0.00      0.00
      100.00        0.00        0.00      100.00        0.00        0.00      0.00
      200.00        0.00        0.00      200.00        0.00        0.00      0.00
      300.00        0.00        0.00      300.00        0.00        0.00      0.00
      400.00        0.00        0.00      400.00        0.00        0.00      0.00
      500.00        0.00        0.00      500.00        0.00        0.00      0.00
      600.00        0.00        0.00      600.00        0.00        0.00      0.00
      700.00        0.00        0.00      700.00        0.00        0.00      0.00
      800.00        0.00        0.00      800.00        0.00        0.00      0.00
      900.00        0.00        0.00      900.00        0.00        0.00      0.00
     1000.00        0.00        0.00     1000.00        0.00        0.00      0.00
     1100.00        0.00        0.00     1100.00        0.00        0.00      0.00
     1200.00        0.00        0.00     1200.00        0.00        0.00      0.00
     1300.00        0.00        0.00     1300.00        0.00        0.00      0.00
     1400.00        0.00        0.00     1400.00        0.00        0.00      0.00
     1500.00        0.00        0.00     1500.00        0.00        0.00      0.00
     1600.00        0.00        0.00     1600.00        0.00        0.00      0.00
     1700.00        0.00        0.00     1700.00        0.00        0.00      0.00
     1800.00        0.00        0.00     1800.00        0.00        0.00      0.00
     1900.00        0.00        0.00     1900.00        0.00        0.00      0.00
     2000.00        0.00        0.00     2000.00        0.00        0.00      0.00
     2100.00        0.00        0.00     2100.00        0.00        0.00      0.00
     2200.00        0.00        0.00     2200.00        0.00        0.00      0.00
     2300.00        0.00        0.00     2300.00        0.00        0.00      0.00
     2400.00        0.00        0.00     2400.00        0.00        0.00      0.00
     2500.00        0.00        0.00     2500.00        0.00        0.00      0.00
     2600.00        0.00        0.00     2600.00        0.00        0.00      0.00
     2700.00        0.00        0.00     2700.00        0.00        0.00      0.00
     2800.00        0.00        0.00     2800.00        0.00        0.00      0.00
     2900.00        0.00        0.00     2900.00        0.00        0.00      0.00
     3000.00        0.00        0.00     3000.00        0.00        0.00      0.00
     3100.00        0.00        0.00     3100.00        0.00        0.00      0.00
     3200.00        0.00        0.00     3200.00        0.00        0.00      0.00
     3300.00        0.00        0.00     3300.00        0.00        0.00      0.00
     3400.00        0.00        0.00     3400.00        0.00        0.00      0.00
     3500.00        0.00        0.00     3500.00        0.00        0.00      0.00
     3600.00        0.00        0.00     3600.00        0.00        0.00      0.00
     3700.00        0.00        0.00     3700.00        0.00        0.00      0.00
     3800.00        0.00        0.00     3800.00        0.00        0.00      0.00
     3900.00        0.00        0.00     3900.00        0.00        0.00      0.00
     4000.00        0.00        0.00     4000.00        0.00        0.00      0.00
     4100.00        0.00        0.00     4100.00        0.00        0.00      0.00
     4200.00        0.00        0.00     4200.00        0.00        0.00      0.00
     4300.00        0.00        0.00     4300.00        0.00        0.00      0.00
     4400.00        0.00        0.00     4400.00        0.00        0.00      0.00
     4500.00        0.00        0.00     4500.00        0.00        0.00      0.00
     4600.00        0.00        0.00     4600.00        0.00        0.00      0.00
     4700.00        0.00        0.00     4700.00        0.00        0.00      0.00
     4800.00        0.00        0.00     4800.00        0.00        0.00      0.00
     4900.00        0.00        0.00     4900.00        0.00        0.00      0.00
     5000.00        0.00        0.00     5000.00        0.00        0.00      0.00
     5100.00        0.00        0.00     5100.00        0.00        0.00      0.00
     5200.00        0.00        0.00     5200.00        0.00        0.00      0.00
     5300.00        0.00        0.00     5300.00        0.00        0.00      0.00
     5400.00        0.00        0.00     5400.00        0.00        0.00      0.00
     5500.00        0.00        0.00     5500.00        0.00        0.00      0.00
     5600.00        0.00        0.00     5600.00        0.00        0.00      0.00
     5700.00        0.00        0.00     5700.00        0.00        0.00      0.00
     5800.00        0.00        0.00     5800.00        0.00        0.00      0.00
     5900.00        0.00        0.00     5900.00        0.00        0.00      0.00
     6000.00        0.00        0.00     6000.00        0.00        0.00      0.00
     6100.00        0.00        0.00     6100.00        0.00        0.00      0.00
     6200.00        0.00        0.00     6200.00        0.00        0.00      0.00
     6300.00        0.00        0.00     6300.00        0.00        0.00      0.00
     6400.00        0.00        0.00     6400.00        0.00        0.00      0.00
     6500.00        0.00        0.00     6500.00        0.00        0.00      0.00
     6600.00        0.00        0.00     6600.00        0.00        0.00      0.00
     6700.00        0.00        0.00     6700.00        0.00        0.00      0.00
     6800.00        0.00        0.00     6800.00        0.00        0.00      0.00
     6900.00        0.00        0.00     6900.00        0.00        0.00      0.00
     7000.00        0.00        0.00     7000.00        0.00        0.00      0.00
     7100.00        0.00        0.00     7100.00        0.00        0.00      0.00
     7200.00        0.00        0.00     7200.00        0.00        0.00      0.00
     7300.00        0.00        0.00     7300.00        0.00        0.00      0.00
     7400.00        0.00        0.00     7400.00        0.00        0.00      0.00
     7500.00        0.00        0.00     7500.00        0.00        0.00      0.00
     7600.00        0.00        0.00     7600.00        0.00        0.00      0.00
     7700.00        0.00        0.00     7700.00        0.00        0.00      0.00
     7800.00        0.00        0.00     7800.00        0.00        0.00      0.00
     7900.00        0.00        0.00     7900.00        0.00        0.00      0.00
     8000.00        0.00        0.00     8000.00        0.00        0.00      0.00
     8100.00        0.00        0.00     8100.00        0.00        0.00      0.00
     8200.00        0.00        0.00     8200.00        0.00        0.00      0.00
     8300.00        0.00        0.00     8300.00        0.00        0.00      0.00
     8400.00        0.00        0.00     8400.00        0.00        0.00      0.00
     8500.00        0.00        0.00     8500.00        0.00        0.00      0.00
     8600.00        0.00        0.00     8600.00        0.00        0.00      0.00
     8700.00        0.00        0.00     8700.00        0.00        0.00      0.00
     8800.00        0.00        0.00     8800.00        0.00        0.00      0.00
     8900.00        0.00        0.00     8900.00        0.00        0.00      0.00
     9000.00        0.00        0.00     9000.00        0.00        0.00      0.00
     9100.00        0.00        0.00     9100.00        0.00        0.00      0.00
     9200.00        0.00        0.00     9200.00        0.00        0.00      0.00
     9300.00        0.00        0.00     9300.00        0.00        0.00      0.00
     9400.00        0.00        0.00     9400.00        0.00        0.00      0.00
     9500.00        0.00        0.00     9500.00        0.00        0.00      0.00
     9600.00        0.00        0.00     9600.00        0.00        0.00      0.00
