# LAS 2.0 Directional Survey & Log File
# Canadian Well Logging Society Specifications
~VERSION INFORMATION
 VERS.   2.0 : CWLS LOG ASCII STANDARD - VERSION 2.0
 WRAP.    NO : ONE LINE PER DEPTH STEP
~WELL INFORMATION
 STRT.FT      0.00 : START DEPTH
 STOP.FT      12400.00 : STOP DEPTH
 STEP.FT      100.00 : STEP LENGTH
 NULL.        -999.25 : NULL VALUE
 COMP.        Equinor Energy AS : COMPANY
 WELL.        Volve 15/9-F-14 : WELL NAME
 FLD .        Block 15/9 : FIELD
 LOC .        58.443105 N 1.887290 W : LOCATION
 APIN.        NO-15/9-F-14 : API NUMBER
 DATE.        2008-07-29 : LOG DATE
~CURVE INFORMATION
 MD    .FT     : MEASURED DEPTH
 INC   .DEG    : INCLINATION ANGLE
 AZI   .DEG    : AZIMUTH ANGLE
 TVD   .FT     : TRUE VERTICAL DEPTH
 DX    .FT     : EASTINGS DEVIATION
 DY    .FT     : NORTHINGS DEVIATION
 DLS   .DEG/100FT : DOGLEG SEVERITY
~A MEASURED DEPTH  INCLINATION  AZIMUTH     TVD       DX_EAST    DY_NORTH     DLS
        0.00        0.00        0.00        0.00        0.00        0.00      0.00
      100.00        0.00        0.00      100.00        0.00        0.00      0.00
      200.00        0.00        0.00      200.00        0.00        0.00      0.00
      300.00        0.00        0.00      300.00        0.00        0.00      0.00
      400.00        0.00        0.00      400.00        0.00        0.00      0.00
      500.00        0.00        0.00      500.00        0.00        0.00      0.00
      600.00        0.00        0.00      600.00        0.00        0.00      0.00
      700.00        0.00        0.00      700.00        0.00        0.00      0.00
      800.00        0.00        0.00      800.00        0.00        0.00      0.00
      900.00        0.00        0.00      900.00        0.00        0.00      0.00
     1000.00        0.00        0.00     1000.00        0.00        0.00      0.00
     1100.00        0.00        0.00     1100.00        0.00        0.00      0.00
     1200.00        0.00        0.00     1200.00        0.00        0.00      0.00
     1300.00        0.00        0.00     1300.00        0.00        0.00      0.00
     1400.00        0.00        0.00     1400.00        0.00        0.00      0.00
     1500.00        0.00        0.00     1500.00        0.00        0.00      0.00
     1600.00        0.00        0.00     1600.00        0.00        0.00      0.00
     1700.00        0.00        0.00     1700.00        0.00        0.00      0.00
     1800.00        0.00        0.00     1800.00        0.00        0.00      0.00
     1900.00        0.00        0.00     1900.00        0.00        0.00      0.00
     2000.00        0.00        0.00     2000.00        0.00        0.00      0.00
     2100.00        0.00        0.00     2100.00        0.00        0.00      0.00
     2200.00        0.00        0.00     2200.00        0.00        0.00      0.00
     2300.00        0.00        0.00     2300.00        0.00        0.00      0.00
     2400.00        0.00        0.00     2400.00        0.00        0.00      0.00
     2500.00        0.00        0.00     2500.00        0.00        0.00      0.00
     2600.00        0.00        0.00     2600.00        0.00        0.00      0.00
     2700.00        0.00        0.00     2700.00        0.00        0.00      0.00
     2800.00        0.00        0.00     2800.00        0.00        0.00      0.00
     2900.00        0.00        0.00     2900.00        0.00        0.00      0.00
     3000.00        0.00        0.00     3000.00        0.00        0.00      0.00
     3100.00        0.00        0.00     3100.00        0.00        0.00      0.00
     3200.00        0.00        0.00     3200.00        0.00        0.00      0.00
     3300.00        0.00        0.00     3300.00        0.00        0.00      0.00
     3400.00        0.00        0.00     3400.00        0.00        0.00      0.00
     3500.00        0.00        0.00     3500.00        0.00        0.00      0.00
     3600.00        0.00        0.00     3600.00        0.00        0.00      0.00
     3700.00        0.00        0.00     3700.00        0.00        0.00      0.00
     3800.00        0.00        0.00     3800.00        0.00        0.00      0.00
     3900.00        0.00        0.00     3900.00        0.00        0.00      0.00
     4000.00        0.00        0.00     4000.00        0.00        0.00      0.00
     4100.00        0.00        0.00     4100.00        0.00        0.00      0.00
     4200.00        0.00        0.00     4200.00        0.00        0.00      0.00
     4300.00        0.00        0.00     4300.00        0.00        0.00      0.00
     4400.00        0.00        0.00     4400.00        0.00        0.00      0.00
     4500.00        0.00        0.00     4500.00        0.00        0.00      0.00
     4600.00        0.00        0.00     4600.00        0.00        0.00      0.00
     4700.00        0.00        0.00     4700.00        0.00        0.00      0.00
     4800.00        0.00      178.25     4800.00        0.00        0.00      0.00
     4900.00        1.65      178.79     4899.96        0.06       -2.87      1.65
     5000.00        3.29      178.83     4999.79        0.18       -8.62      1.64
     5100.00        4.94      178.48     5099.42        0.41      -17.23      1.65
     5200.00        6.59      177.81     5198.76        0.84      -28.69      1.65
     5300.00        8.24      178.48     5297.73        1.23      -43.01      1.65
     5400.00        9.88      177.43     5396.25        2.00      -60.16      1.65
     5500.00       11.53      177.82     5494.23        2.75      -80.13      1.65
     5600.00       13.18      177.72     5591.60        3.66     -102.91      1.65
     5700.00       14.82      177.71     5688.27        4.69     -128.47      1.64
     5800.00       16.47      177.52     5784.16        5.91     -156.80      1.65
     5900.00       18.12      178.91     5879.21        6.50     -187.89      1.70
     6000.00       19.76      178.05     5973.32        7.66     -221.68      1.67
     6100.00       21.41      179.00     6066.41        8.29     -258.19      1.69
     6200.00       23.06      178.39     6158.42        9.39     -297.34      1.67
     6300.00       24.71      176.90     6249.27       11.66     -339.07      1.75
     6400.00       26.35      179.03     6338.88       12.41     -383.46      1.88
     6500.00       28.00      178.37     6427.17       13.74     -430.38      1.68
     6600.00       29.65      178.73     6514.08       14.84     -479.84      1.66
     6700.00       31.29      177.76     6599.53       16.87     -531.74      1.72
     6800.00       32.94      178.81     6683.46       17.99     -586.11      1.74
     6900.00       34.59      177.60     6765.78       20.37     -642.83      1.78
     7000.00       36.24      179.03     6846.44       21.37     -701.93      1.84
     7100.00       37.88      177.18     6925.37       24.39     -763.26      1.98
     7200.00       39.53      178.88     7002.50       25.64     -826.89      1.96
     7300.00       41.18      177.33     7077.77       28.70     -892.66      1.93
     7400.00       42.82      177.98     7151.11       31.09     -960.59      1.70
     7500.00       44.47      178.70     7222.47       32.68    -1030.63      1.72
     7600.00       46.12      177.68     7291.79       35.59    -1102.64      1.80
     7700.00       47.76      177.61     7359.01       38.68    -1176.62      1.65
     7800.00       49.41      176.99     7424.07       42.67    -1252.46      1.72
     7900.00       51.06      178.85     7486.92       44.23    -1330.22      2.18
     8000.00       52.71      177.09     7547.51       48.27    -1409.67      2.15
     8100.00       54.35      178.43     7605.79       50.49    -1490.90      1.97
     8200.00       56.00      177.45     7661.71       54.18    -1573.72      1.84
     8300.00       57.65      178.39     7715.22       56.55    -1658.17      1.83
     8400.00       59.29      177.85     7766.29       59.78    -1744.09      1.71
     8500.00       60.94      178.38     7814.86       62.25    -1831.46      1.71
     8600.00       62.59      178.05     7860.90       65.27    -1920.18      1.67
     8700.00       64.24      177.09     7904.36       69.84    -2010.13      1.85
     8800.00       65.88      177.03     7945.23       74.57    -2101.28      1.64
     8900.00       67.53      177.13     7983.45       79.20    -2193.57      1.65
     9000.00       69.18      177.03     8019.00       84.04    -2286.91      1.65
     9100.00       70.82      177.62     8051.84       87.96    -2381.28      1.73
     9200.00       72.47      179.13     8081.96       89.40    -2476.62      2.19
     9300.00       74.12      178.47     8109.33       91.98    -2572.77      1.77
     9400.00       75.76      177.40     8133.92       96.37    -2669.60      1.94
     9500.00       77.41      177.86     8155.71      100.02    -2767.13      1.71
     9600.00       79.06      177.76     8174.69      103.86    -2865.24      1.65
