# LAS 2.0 Directional Survey & Log File
# Canadian Well Logging Society Specifications
~VERSION INFORMATION
 VERS.   2.0 : CWLS LOG ASCII STANDARD - VERSION 2.0
 WRAP.    NO : ONE LINE PER DEPTH STEP
~WELL INFORMATION
 STRT.FT      0.00 : START DEPTH
 STOP.FT      11300.00 : STOP DEPTH
 STEP.FT      100.00 : STEP LENGTH
 NULL.        -999.25 : NULL VALUE
 COMP.        Equinor Energy AS : COMPANY
 WELL.        Volve 15/9-F-12 : WELL NAME
 FLD .        Block 15/9 : FIELD
 LOC .        58.441928 N 1.884521 W : LOCATION
 APIN.        NO-15/9-F-12 : API NUMBER
 DATE.        2008-02-14 : LOG DATE
~CURVE INFORMATION
 MD    .FT     : MEASURED DEPTH
 INC   .DEG    : INCLINATION ANGLE
 AZI   .DEG    : AZIMUTH ANGLE
 TVD   .FT     : TRUE VERTICAL DEPTH
 DX    .FT     : EASTINGS DEVIATION
 DY    .FT     : NORTHINGS DEVIATION
 DLS   .DEG/100FT : DOGLEG SEVERITY
~A MEASURED DEPTH  INCLINATION  AZIMUTH     TVD       DX_EAST    DY_NORTH     DLS
        0.00        0.00        0.00        0.00        0.00        0.00      0.00
      100.00        0.00        0.00      100.00        0.00        0.00      0.00
      200.00        0.00        0.00      200.00        0.00        0.00      0.00
      300.00        0.00        0.00      300.00        0.00        0.00      0.00
      400.00        0.00        0.00      400.00        0.00        0.00      0.00
      500.00        0.00        0.00      500.00        0.00        0.00      0.00
      600.00        0.00        0.00      600.00        0.00        0.00      0.00
      700.00        0.00        0.00      700.00        0.00        0.00      0.00
      800.00        0.00        0.00      800.00        0.00        0.00      0.00
      900.00        0.00        0.00      900.00        0.00        0.00      0.00
     1000.00        0.00        0.00     1000.00        0.00        0.00      0.00
     1100.00        0.00        0.00     1100.00        0.00        0.00      0.00
     1200.00        0.00        0.00     1200.00        0.00        0.00      0.00
     1300.00        0.00        0.00     1300.00        0.00        0.00      0.00
     1400.00        0.00        0.00     1400.00        0.00        0.00      0.00
     1500.00        0.00        0.00     1500.00        0.00        0.00      0.00
     1600.00        0.00        0.00     1600.00        0.00        0.00      0.00
     1700.00        0.00        0.00     1700.00        0.00        0.00      0.00
     1800.00        0.00        0.00     1800.00        0.00        0.00      0.00
     1900.00        0.00        0.00     1900.00        0.00        0.00      0.00
     2000.00        0.00        0.00     2000.00        0.00        0.00      0.00
     2100.00        0.00        0.00     2100.00        0.00        0.00      0.00
     2200.00        0.00        0.00     2200.00        0.00        0.00      0.00
     2300.00        0.00        0.00     2300.00        0.00        0.00      0.00
     2400.00        0.00        0.00     2400.00        0.00        0.00      0.00
     2500.00        0.00        0.00     2500.00        0.00        0.00      0.00
     2600.00        0.00        0.00     2600.00        0.00        0.00      0.00
     2700.00        0.00        0.00     2700.00        0.00        0.00      0.00
     2800.00        0.00        0.00     2800.00        0.00        0.00      0.00
     2900.00        0.00        0.00     2900.00        0.00        0.00      0.00
     3000.00        0.00        0.00     3000.00        0.00        0.00      0.00
     3100.00        0.00        0.00     3100.00        0.00        0.00      0.00
     3200.00        0.00        0.00     3200.00        0.00        0.00      0.00
     3300.00        0.00        0.00     3300.00        0.00        0.00      0.00
     3400.00        0.00        0.00     3400.00        0.00        0.00      0.00
     3500.00        0.00        0.00     3500.00        0.00        0.00      0.00
     3600.00        0.00        0.00     3600.00        0.00        0.00      0.00
     3700.00        0.00        0.00     3700.00        0.00        0.00      0.00
     3800.00        0.00        0.00     3800.00        0.00        0.00      0.00
     3900.00        0.00        0.00     3900.00        0.00        0.00      0.00
     4000.00        0.00        0.00     4000.00        0.00        0.00      0.00
     4100.00        0.00        0.00     4100.00        0.00        0.00      0.00
     4200.00        0.00        0.00     4200.00        0.00        0.00      0.00
     4300.00        0.00        0.00     4300.00        0.00        0.00      0.00
     4400.00        0.00        0.00     4400.00        0.00        0.00      0.00
     4500.00        0.00      141.01     4500.00        0.00        0.00      0.00
     4600.00        1.76      141.32     4599.95        1.92       -2.40      1.76
     4700.00        3.53      142.64     4699.76        5.65       -7.29      1.77
     4800.00        5.29      141.97     4799.34       11.33      -14.55      1.76
     4900.00        7.05      142.09     4898.58       18.88      -24.23      1.76
     5000.00        8.81      141.46     4997.40       28.42      -36.22      1.77
     5100.00       10.58      142.08     5095.70       39.70      -50.70      1.77
     5200.00       12.34      142.49     5193.39       52.72      -67.65      1.76
     5300.00       14.10      142.46     5290.38       67.56      -86.97      1.76
     5400.00       15.86      140.86     5386.57       84.82     -108.17      1.81
     5500.00       17.63      142.58     5481.87      103.22     -132.22      1.84
     5600.00       19.39      141.34     5576.20      123.96     -158.15      1.80
     5700.00       21.15      143.08     5669.46      145.64     -187.00      1.86
     5800.00       22.92      142.20     5761.57      169.50     -217.76      1.80
     5900.00       24.68      143.14     5852.44      194.55     -251.17      1.80
     6000.00       26.44      142.60     5941.98      221.59     -286.55      1.78
     6100.00       28.20      141.03     6030.10      251.31     -323.29      1.91
     6200.00       29.97      142.78     6116.73      281.53     -363.07      1.96
     6300.00       31.73      141.08     6201.79      314.57     -403.98      1.96
     6400.00       33.49      142.00     6285.18      348.55     -447.47      1.83
     6500.00       35.26      142.66     6366.84      383.55     -493.36      1.80
     6600.00       37.02      141.76     6446.69      420.82     -540.65      1.84
     6700.00       38.78      143.11     6524.64      458.42     -590.74      1.95
     6800.00       40.54      142.30     6600.63      498.16     -642.18      1.84
     6900.00       42.31      142.86     6674.59      538.80     -695.83      1.80
     7000.00       44.07      142.65     6746.44      581.00     -751.12      1.77
     7100.00       45.83      141.33     6816.11      625.82     -807.13      1.99
     7200.00       47.59      142.70     6883.55      670.56     -865.87      2.03
     7300.00       49.36      140.95     6948.69      718.36     -924.80      2.20
     7400.00       51.12      142.96     7011.45      765.26     -986.93      2.34
     7500.00       52.88      141.80     7071.80      814.57    -1049.60      1.99
     7600.00       54.65      140.86     7129.66      866.06    -1112.85      1.92
     7700.00       56.41      143.11     7184.99      916.06    -1179.47      2.56
     7800.00       58.17      141.90     7237.73      968.49    -1246.34      2.03
     7900.00       59.93      142.66     7287.83     1020.97    -1315.15      1.88
     8000.00       61.70      142.06     7335.24     1075.11    -1384.58      1.84
     8100.00       63.46      141.39     7379.92     1130.94    -1454.49      1.86
     8200.00       65.22      141.24     7421.83     1187.78    -1525.28      1.77
     8300.00       66.99      142.51     7460.93     1243.80    -1598.31      2.11
     8400.00       68.75      141.25     7497.18     1302.14    -1670.99      2.11
     8500.00       70.51      141.65     7530.54     1360.64    -1744.92      1.80
     8600.00       72.27      141.48     7560.99     1419.96    -1819.45      1.77
     8700.00       74.04      141.29     7588.49     1480.08    -1894.47      1.78
     8800.00       75.80      142.44     7613.02     1539.18    -1971.32      2.08
     8900.00       77.56      140.92     7634.56     1600.75    -2047.12      2.30
     9000.00       79.32      141.95     7653.09     1661.32    -2124.50      2.03
     9100.00       81.09      141.45     7668.58     1722.89    -2201.76      1.83
     9200.00       82.85      143.18     7681.03     1782.35    -2281.19      2.45
     9300.00       84.50      141.22     7690.61     1844.69    -2358.79      2.55
     9400.00       84.50      141.02     7700.19     1907.31    -2436.17      0.20
     9500.00       84.50      141.51     7709.78     1969.26    -2514.08      0.48
     9600.00       84.50      142.77     7719.36     2029.49    -2593.33      1.25
